{
   "_id": "athen_m2",
   "_rev": "20-9635c716b1c6870c8e2fc378162360d3",
   "city": "Athen",
   "lineName": "M2",
   "lineNameShow": "M2",
   "color": "C6455A",
   "memos": "",
   "type": "line",
   "created_at": "2011-05-19T19:30:56.200Z",
   "stations": {
       "M2_001": {
           "number": "M2_001",
           "name": "Agios Antonios",
           "next": "M2_002",
           "previous": "",
           "latitude": "38.006045",
           "longitude": "23.69952999999998",
           "correspondance": [
               ""
           ],
           "memos": ""
       },
       "M2_002": {
           "number": "M2_002",
           "name": "Sepolia",
           "next": "M2_003",
           "previous": "M2_001",
           "latitude": "38.002408",
           "longitude": "23.713454",
           "correspondance": [
               ""
           ],
           "memos": ""
       },
       "M2_003": {
           "number": "M2_003",
           "name": "Attiki",
           "next": "M2_004",
           "previous": "M2_002",
           "latitude": "37.999338",
           "longitude": "23.722376",
           "correspondance": [
               "M1"
           ],
           "memos": ""
       },
       "M2_004": {
           "number": "M2_004",
           "name": "Larissa Bahnhof",
           "next": "M2_005",
           "previous": "M2_003",
           "latitude": "37.9922",
           "longitude": "23.7206",
           "correspondance": [
               ""
           ],
           "memos": ""
       },
       "M2_005": {
           "number": "M2_005",
           "name": "Metaxourgeio",
           "next": "M2_006",
           "previous": "M2_004",
           "latitude": "37.985738",
           "longitude": "23.721541000000002",
           "correspondance": [
               ""
           ],
           "memos": ""
       },
       "M2_006": {
           "number": "M2_006",
           "name": "Omoneia",
           "next": "M2_007",
           "previous": "M2_005",
           "latitude": "37.9841061",
           "longitude": "23.728135599999973",
           "correspondance": [
               "M1"
           ],
           "memos": ""
       },
       "M2_007": {
           "number": "M2_007",
           "name": "Panepistimio",
           "next": "M2_008",
           "previous": "M2_006",
           "latitude": "37.980342",
           "longitude": "23.732235",
           "correspondance": [
               ""
           ],
           "memos": ""
       },
       "M2_008": {
           "number": "M2_008",
           "name": "Syntagma",
           "next": "M2_009",
           "previous": "M2_007",
           "latitude": "37.975333",
           "longitude": "23.735495",
           "correspondance": [
               "M3"
           ],
           "memos": ""
       },
       "M2_009": {
           "number": "M2_009",
           "name": "Akropolis",
           "next": "M2_010",
           "previous": "M2_008",
           "latitude": "37.968798",
           "longitude": "23.729364",
           "correspondance": [
               ""
           ],
           "memos": ""
       },
       "M2_010": {
           "number": "M2_010",
           "name": "Fix",
           "next": "M2_011",
           "previous": "M2_009",
           "latitude": "37.964746",
           "longitude": "23.72655",
           "correspondance": [
               ""
           ],
           "memos": ""
       },
       "M2_011": {
           "number": "M2_011",
           "name": "Neos Kosmos",
           "next": "M2_012",
           "previous": "M2_010",
           "latitude": "37.957602",
           "longitude": "23.728305",
           "correspondance": [
               ""
           ],
           "memos": ""
       },
       "M2_012": {
           "number": "M2_012",
           "name": "Agios Ioannis",
           "next": "M2_013",
           "previous": "M2_011",
           "latitude": "37.956524",
           "longitude": "23.734674499999983",
           "correspondance": [
               ""
           ],
           "memos": ""
       },
       "M2_013": {
           "number": "M2_013",
           "name": "Dafni",
           "next": "M2_014",
           "previous": "M2_012",
           "latitude": "37.949156",
           "longitude": "23.737324",
           "correspondance": [
               ""
           ],
           "memos": ""
       },
       "M2_014": {
           "number": "M2_014",
           "name": "Agios Dimitrios",
           "next": "",
           "previous": "M2_013",
           "latitude": "37.940392",
           "longitude": "23.74062",
           "correspondance": [
               ""
           ],
           "memos": ""
       }
   },
   "_attachments": {
       "athen_m2.png": {
           "content_type": "image/png",
           "revpos": 3,
           "length": 4075,
           "stub": true
       }
   }
}